var data = { 'points': [{'tipo':'0', 'nombre': 'Madrid desde el aire', 'latitud':40.41848073660428, 'longitud':-3.7035796570234623, 'categoria':'3', 'link':'', 'cliente':'1000CVFTWJ', 'icono':'PDI Centurion mini.svg', 'iconog':'PDI Centurion Blanco.svg', 'direccion':'', 'descripcion':'La historia de la ciudad de Madrid en una magnífica vista aérea, desde el siglo IX hasta el siglo XVIII.','codigo':'1002','imagen':'IMG-47d2b1d48b0a337e.png','idioma':'1','contenidos':'5'},{'tipo':'0', 'nombre': 'Palacio Real', 'latitud':40.418171437377566, 'longitud':-3.7143227308960793, 'categoria':'1', 'link':'', 'cliente':'', 'icono':'PDI Centurion mini.svg', 'iconog':'PDI Centurion Blanco.svg', 'direccion':'', 'descripcion':'El desaparecido Alcázar estuvo situado en el solar donde actualmente se erige el Palacio Real de Madrid.','codigo':'1003','imagen':'IMG-2255704717a6c3ec.jpg','idioma':'1','contenidos':'6'},{'tipo':'0', 'nombre': 'Plaza Mayor', 'latitud':40.415800622758, 'longitud':-3.7071935027038725, 'categoria':'1', 'link':'', 'cliente':'', 'icono':'PDI Centurion mini.svg', 'iconog':'PDI Centurion Blanco.svg', 'direccion':'', 'descripcion':'La plaza Mayor está situada junto a la calle Mayor y a 300 metros de la Puerta del Sol.','codigo':'1007ZVKPVV','imagen':'IMG-XDHRNB-XAIJQB.jpg','idioma':'1','contenidos':'3'},{'tipo':'0', 'nombre': 'Gran Vía', 'latitud':40.41911203720547, 'longitud':-3.69693128920154, 'categoria':'0', 'link':'', 'cliente':'', 'icono':'PDI Centurion mini.svg', 'iconog':'PDI Centurion Blanco.svg', 'direccion':'', 'descripcion':'Su construcción a principios del siglo XX la convirtió en un punto de interés comercial, turístico y de ocio.','codigo':'1021ADFFEF','imagen':'IMG-FGPPFN-FEQHIN.jpg','idioma':'1','contenidos':'3'},{'tipo':'0', 'nombre': 'Puerta del Sol', 'latitud':40.41712242494147, 'longitud':-3.7035155892016394, 'categoria':'0', 'link':'', 'cliente':'', 'icono':'PDI Centurion mini.svg', 'iconog':'PDI Centurion Blanco.svg', 'direccion':'', 'descripcion':'Plaza de Madrid donde se encuentra el Kilómetro Cero de las carreteras radiales de España.','codigo':'1022JRSHBE','imagen':'IMG-RKQEOG-RHQWSG.jpg','idioma':'1','contenidos':'4'},{'tipo':'0', 'nombre': 'Canal de Isabel II', 'latitud':40.439229707792094, 'longitud':-3.7007672280712005, 'categoria':'0', 'link':'', 'cliente':'', 'icono':'Canal mini.svg', 'iconog':'Canal de Isabel II RGB VRT.svg', 'direccion':'', 'descripcion':'Descubre la historia del Canal Isabel II con IMAGEEN.','codigo':'1023WSEEUX','imagen':'IMG-BQZCZQ-BNZUCQ.jpg','idioma':'1','contenidos':'6'},{'tipo':'0', 'nombre': 'RODILLA - Plaza del Callao', 'latitud':40.41953651727653, 'longitud':-3.705861591329415, 'categoria':'0', 'link':'', 'cliente':'1000CVFTWJ', 'icono':'PDI Centurion mini.svg', 'iconog':'PDI Centurion Blanco.svg', 'direccion':'', 'descripcion':'En una de las principales calles comerciales de Madrid, justo a un minuto de la arteria más conocida y fotografiada de la ciudad, se encuentra uno de los restaurantes Rodilla más frecuentados por los madrileños. El local de la Plaza de Callao el rincón perfecto donde sentarse tras un largo día de compras y disfrutar de una buena merienda en la mejor compañía.','codigo':'1024IHHEMS','imagen':'IMG-TJYLAD-THZDDD.jpg','idioma':'1','contenidos':'2'},{'tipo':'0', 'nombre': 'Introducción - Tarragona', 'latitud':41.122566746872415, 'longitud':1.2439042730385776, 'categoria':'0', 'link':'', 'cliente':'', 'icono':'PDI Centurion mini.svg', 'iconog':'PDI Centurion Blanco.svg', 'direccion':'', 'descripcion':'Descubre el surgimiento de la antigua Tarraco.','codigo':'1025OGQMPK','imagen':'IMG-ZVEWII-ZTFOLI.jpg','idioma':'1','contenidos':'1'},{'tipo':'0', 'nombre': 'Estadio Santiago Bernabéu', 'latitud':40.453226450622296, 'longitud':-3.688355160364359, 'categoria':'0', 'link':'', 'cliente':'', 'icono':'PDI Centurion mini.svg', 'iconog':'PDI Centurion Blanco.svg', 'direccion':'', 'descripcion':'Presente y futuro estadio del Real Madrid Club de Fútbol.','codigo':'1026WYWAKW','imagen':'IMG-OHLOCR-OELFFR.jpg','idioma':'1','contenidos':'1'},{'tipo':'0', 'nombre': 'Les Ferreres / Pont del Diable', 'latitud':41.14602694645307, 'longitud':1.243887810824272, 'categoria':'0', 'link':'', 'cliente':'', 'icono':'PDI Centurion mini.svg', 'iconog':'PDI Centurion Blanco.svg', 'direccion':'', 'descripcion':'Descubre el magnífico acueducto romano de Les Ferreres o Pont del Diable.','codigo':'1027GDAKUW','imagen':'IMG-PERZKA-PBRQNB.jpg','idioma':'1','contenidos':'2'},{'tipo':'0', 'nombre': 'Anfiteatro de Tarraco', 'latitud':41.11476273868292, 'longitud':1.2587556954791124, 'categoria':'0', 'link':'', 'cliente':'', 'icono':'PDI Centurion mini Premium.svg', 'iconog':'PDI Centurion Premium.svg', 'direccion':'', 'descripcion':'Se construyó junto al mar en el siglo II d.C. ','codigo':'1028IIMZFC','imagen':'IMG-XWVVVX-XTWNYX.jpg','idioma':'1','contenidos':'4'},{'tipo':'0', 'nombre': 'Foro de la colonia', 'latitud':41.114850589239566, 'longitud':1.2460555819871284, 'categoria':'0', 'link':'', 'cliente':'', 'icono':'PDI Centurion mini Premium.svg', 'iconog':'PDI Centurion Premium.svg', 'direccion':'', 'descripcion':'Era el centro de la vida administrativa y comercial de la ciudad.','codigo':'1029QKBMXQ','imagen':'IMG-JZVTGX-JWWLJX.jpg','idioma':'1','contenidos':'3'},{'tipo':'0', 'nombre': 'Recinto de culto', 'latitud':41.118968399783135, 'longitud':1.2579299108232864, 'categoria':'0', 'link':'', 'cliente':'', 'icono':'PDI Centurion mini Premium.svg', 'iconog':'PDI Centurion Premium.svg', 'direccion':'', 'descripcion':'Bajo la actual Catedral de Tarragona se encuentra un espectacular templo del siglo I d.C. dedicado al Emperador Augusto.','codigo':'1030PAPVBK','imagen':'IMG-GJVNVQ-GGVFYQ.jpg','idioma':'1','contenidos':'3'},{'tipo':'0', 'nombre': 'Circo de Tarraco', 'latitud':41.11633473365, 'longitud':1.257039383839183, 'categoria':'0', 'link':'', 'cliente':'', 'icono':'PDI Centurion mini Premium.svg', 'iconog':'PDI Centurion Premium.svg', 'direccion':'', 'descripcion':'Con una longitud de unos 310 m, en él se celebraban los ludi circense o carreras de caballos.','codigo':'1031XAAGNQ','imagen':'IMG-ZLQRHH-ZIRJKH.jpg','idioma':'1','contenidos':'7'},{'tipo':'0', 'nombre': 'Foro provincial', 'latitud':41.11811128000448, 'longitud':1.2588170531512668, 'categoria':'0', 'link':'', 'cliente':'', 'icono':'PDI Centurion mini Pre New.svg', 'iconog':'PDI Centurion Pre New.svg', 'direccion':'', 'descripcion':'Aquí estaban las dependencias y los servicios del gobierno y de la administración provincial.','codigo':'1032FYMEWH','imagen':'IMG-d076166c4a8e95de.png','idioma':'1','contenidos':'4'},{'tipo':'0', 'nombre': 'Muralla romana. Tarraco', 'latitud':41.118836065155385, 'longitud':1.2550163531512664, 'categoria':'0', 'link':'', 'cliente':'', 'icono':'PDI Centurion mini Premium.svg', 'iconog':'PDI Centurion Premium.svg', 'direccion':'', 'descripcion':'Las murallas de Tarragona son de las construcciones romanas mas antiguas y mejor conservadas del mundo.','codigo':'1033PDVERT','imagen':'IMG-LYPLEY-KWPDHY.jpg','idioma':'1','contenidos':'1'},{'tipo':'0', 'nombre': 'Muralla medieval en Tarragona', 'latitud':41.115930403262276, 'longitud':1.2571607838391528, 'categoria':'0', 'link':'', 'cliente':'', 'icono':'PDI Centurion mini Premium.svg', 'iconog':'PDI Centurion Premium.svg', 'direccion':'', 'descripcion':'En esa parte de la ciudad se levantaron fortificaciones militares que aprovecharon los restos romanos.','codigo':'1034AWXJSO','imagen':'IMG-YWLCOU-YTLURU.jpg','idioma':'1','contenidos':'1'},{'tipo':'0', 'nombre': 'Teatro de Tarraco', 'latitud':41.113042660911994, 'longitud':1.2494989973310522, 'categoria':'0', 'link':'', 'cliente':'', 'icono':'PDI Centurion mini Premium.svg', 'iconog':'PDI Centurion Premium.svg', 'direccion':'', 'descripcion':'Es posible imaginar el teatro romano de Tarraco, gracias a que su planta es muy similar a la planta del teatro romano de Cartagena.','codigo':'1035ZYNWKA','imagen':'IMG-WXALMH-WUADPH.jpg','idioma':'1','contenidos':'1'},{'tipo':'0', 'nombre': 'Ciudad romana de Tarraco', 'latitud':41.11556748944163, 'longitud':1.252925839659171, 'categoria':'0', 'link':'', 'cliente':'', 'icono':'PDI Centurion mini Premium.svg', 'iconog':'PDI Centurion Premium.svg', 'direccion':'', 'descripcion':'Los restos de la ciudad de Tarraco nos ayudan a hacernos una idea de como era la ciudad en la época romana.','codigo':'1036VVSVYB','imagen':'IMG-RBXQCS-RYYIGS.jpg','idioma':'1','contenidos':'1'},{'tipo':'0', 'nombre': 'Introducción - Mérida', 'latitud':38.92084349427577, 'longitud':-6.3452787713216265, 'categoria':'0', 'link':'', 'cliente':'', 'icono':'PDI Centurion mini.svg', 'iconog':'PDI Centurion Blanco.svg', 'direccion':'', 'descripcion':'Descubre la antigua Mérida, viajando a la época romana con Imageen.','codigo':'1037UWWRNX','imagen':'IMG-TVOWBE-TSPOEE.jpg','idioma':'1','contenidos':'1'},{'tipo':'0', 'nombre': 'Anfiteatro de Mérida', 'latitud':38.916330625192415, 'longitud':-6.337899345073518, 'categoria':'0', 'link':'', 'cliente':'', 'icono':'PDI Centurion mini Premium.svg', 'iconog':'PDI Centurion Premium.svg', 'direccion':'', 'descripcion':'El anfiteatro de Mérida fue construido por el Imperio romano en la colonia de Augusta Emerita en el año 8 a. C.','codigo':'1038ULPBLY','imagen':'IMG-FAZJGL-FYABJL.jpg','idioma':'1','contenidos':'4'},{'tipo':'0', 'nombre': 'Teatro de Mérida', 'latitud':38.91534459296677, 'longitud':-6.338492873909521, 'categoria':'0', 'link':'', 'cliente':'', 'icono':'PDI Centurion mini Premium.svg', 'iconog':'PDI Centurion Premium.svg', 'direccion':'', 'descripcion':'Como el Anfiteatro, el Teatro romano de Mérida es de los edificios de espectáculos más importantes de Hispania. ','codigo':'1039OFZUSU','imagen':'IMG-WLSLGO-WISDJO.jpg','idioma':'1','contenidos':'8'},{'tipo':'0', 'nombre': 'Castillo del Patriarca', 'latitud':41.118604579258616, 'longitud':1.2582212213875883, 'categoria':'0', 'link':'', 'cliente':'', 'icono':'PDI Centurion mini Premium.svg', 'iconog':'PDI Centurion Premium.svg', 'direccion':'', 'descripcion':'Construido en el Siglo XII, fue utilizado hasta que las tropas napoleónicas lo dinamitaron en el Siglo XIX.','codigo':'1040RWUCSB','imagen':'IMG-PLZRGN-PIAJJN.jpg','idioma':'1','contenidos':'1'},{'tipo':'0', 'nombre': 'Introducción - Cartagena', 'latitud':37.62787571490459, 'longitud':-0.9970911796123405, 'categoria':'0', 'link':'', 'cliente':'', 'icono':'PDI Centurion mini.svg', 'iconog':'PDI Centurion Blanco.svg', 'direccion':'', 'descripcion':'Viaja al pasado de Cartagena con IMAGEEN.','codigo':'1041PQWQSD','imagen':'IMG-NKYEVT-NIYVYT.jpg','idioma':'1','contenidos':'1'},{'tipo':'0', 'nombre': 'Teatro de Cartagena', 'latitud':37.59930996816183, 'longitud':-0.9838745968896551, 'categoria':'0', 'link':'', 'cliente':'', 'icono':'PDI Centurion mini Premium.svg', 'iconog':'PDI Centurion Premium.svg', 'direccion':'', 'descripcion':'Los restos de este teatro romano pueden visitarse actualmente en el Museo del Teatro Romano de Cartagena.','codigo':'1042KEQJOS','imagen':'IMG-6aa457d7d6175835.jpg','idioma':'1','contenidos':'5'},{'tipo':'0', 'nombre': 'Introducción - Zaragoza', 'latitud':41.656030865498195, 'longitud':-0.8874304952019766, 'categoria':'0', 'link':'', 'cliente':'', 'icono':'PDI Centurion mini new.svg', 'iconog':'PDI Centurion new.svg', 'direccion':'', 'descripcion':'Descubre el pasado de Zaragoza con IMAGEEN.','codigo':'1043ZWDCSF','imagen':'IMG-dbfbbb7526e2d058.png','idioma':'1','contenidos':'2'},{'tipo':'0', 'nombre': 'Foro Caesar Augusta', 'latitud':41.6551928822805, 'longitud':-0.8762917364538636, 'categoria':'0', 'link':'', 'cliente':'', 'icono':'PDI Centurion mini.svg', 'iconog':'PDI Centurion Blanco.svg', 'direccion':'', 'descripcion':'El foro romano fue construido en la Colonia Caesar Augusta, actual Zaragoza.','codigo':'1044RPMGGJ','imagen':'IMG-PXKASV-PVKSVV.jpg','idioma':'1','contenidos':'6'},{'tipo':'0', 'nombre': 'Capuig. L´Espluga', 'latitud':41.39719579823032, 'longitud':1.1031751243252699, 'categoria':'0', 'link':'', 'cliente':'', 'icono':'PDI Centurion mini.svg', 'iconog':'PDI Centurion Blanco.svg', 'direccion':'', 'descripcion':'Viaja a la Edad Media de esta parte de la villa que era conocida como Espluga Sobirana.','codigo':'1045PFOIJD','imagen':'IMG-NKCHSJ-NICZVJ.jpg','idioma':'1','contenidos':'2'},{'tipo':'0', 'nombre': 'El castillo de L´Espluga', 'latitud':41.39753768114471, 'longitud':1.1047183037078092, 'categoria':'0', 'link':'', 'cliente':'', 'icono':'PDI Centurion mini.svg', 'iconog':'PDI Centurion Blanco.svg', 'direccion':'', 'descripcion':'El castillo de l~Espluga perteneció a los templarios en el siglo XIII.','codigo':'1046MCCFFA','imagen':'IMG-YYWVMW-YVXNPW.jpg','idioma':'1','contenidos':'2'},{'tipo':'0', 'nombre': 'Museo de la vida rural. L´Espluga', 'latitud':41.39675223334331, 'longitud':1.1039661108332324, 'categoria':'0', 'link':'', 'cliente':'', 'icono':'PDI Centurion mini.svg', 'iconog':'PDI Centurion Blanco.svg', 'direccion':'', 'descripcion':'En época medieval, esta era una zona de cultivos conocida como “valle de la villa”.','codigo':'1047XYKSLD','imagen':'IMG-HUTZVM-HSTRYM.jpg','idioma':'1','contenidos':'2'},{'tipo':'0', 'nombre': 'Plaza de la Iglesia. L´Espluga', 'latitud':41.39671384748304, 'longitud':1.1034919125114826, 'categoria':'0', 'link':'', 'cliente':'', 'icono':'PDI Centurion mini.svg', 'iconog':'PDI Centurion Blanco.svg', 'direccion':'', 'descripcion':'Viaja al siglo XII para conocer una primitiva iglesia románica.','codigo':'1048WMMFPU','imagen':'IMG-VUWFEZ-VSWXIZ.jpg','idioma':'1','contenidos':'2'},{'tipo':'0', 'nombre': 'Einstein en L´Espluga', 'latitud':41.39752377531692, 'longitud':1.105757726177261, 'categoria':'0', 'link':'', 'cliente':'', 'icono':'PDI Centurion mini.svg', 'iconog':'PDI Centurion Blanco.svg', 'direccion':'', 'descripcion':'La visita de Albert Einstein a l~Espluga en 1923.','codigo':'1049HMLMLB','imagen':'IMG-RIXBSI-RGXTVI.jpg','idioma':'1','contenidos':'1'},{'tipo':'0', 'nombre': 'Itálica - Introducción', 'latitud':37.44736112308363, 'longitud':-6.045048972865144, 'categoria':'0', 'link':'', 'cliente':'', 'icono':'PDI Centurion mini.svg', 'iconog':'PDI Centurion Blanco.svg', 'direccion':'', 'descripcion':'El diseño de esta ciudad sigue el modelo ideal de una ciudad romana.','codigo':'1050KYCSFL','imagen':'IMG-PQAOSB-OOBGVB.jpg','idioma':'1','contenidos':'1'},{'tipo':'0', 'nombre': 'Termas de Itálica', 'latitud':37.441096267865746, 'longitud':-6.047752087450658, 'categoria':'0', 'link':'', 'cliente':'', 'icono':'PDI Centurion mini.svg', 'iconog':'PDI Centurion Blanco.svg', 'direccion':'', 'descripcion':'Estas termas estaban dotadas de todo tipo de salas y comodidades. ','codigo':'1051CRDORG','imagen':'IMG-BOKGCE-BLKYFE.jpg','idioma':'1','contenidos':'3'},{'tipo':'0', 'nombre': 'Anfiteatro de Itálica', 'latitud':37.44410139738521, 'longitud':-6.046772969289567, 'categoria':'0', 'link':'', 'cliente':'', 'icono':'PDI Centurion mini.svg', 'iconog':'PDI Centurion Blanco.svg', 'direccion':'', 'descripcion':'Fue construido en la actual Sevilla, Andalucía.','codigo':'1053FR5YH','imagen':'IMG-c639940c7da0728f.png','idioma':'1','contenidos':'3'},{'tipo':'0', 'nombre': 'Teatro de Itálica', 'latitud':37.440221125720655, 'longitud':-6.037971355109435, 'categoria':'0', 'link':'', 'cliente':'', 'icono':'PDI Centurion mini.svg', 'iconog':'PDI Centurion Blanco.svg', 'direccion':'', 'descripcion':'El fascinante teatro romano de Itálica, en el pasado.','codigo':'1054BR6G','imagen':'IMG-234d72623075d1f8.jpg','idioma':'1','contenidos':'1'},{'tipo':'0', 'nombre': 'Cisternas de Itálica', 'latitud':37.44113044172381, 'longitud':-6.047827488953008, 'categoria':'0', 'link':'', 'cliente':'', 'icono':'PDI Centurion mini.svg', 'iconog':'PDI Centurion Blanco.svg', 'direccion':'', 'descripcion':'Sus restos muestran el uso que le daban los romanos.','codigo':'1055b6be98f3','imagen':'IMG-dc635bdc8c176a38.jpg','idioma':'1','contenidos':'1'},{'tipo':'0', 'nombre': 'Introducción - Empúries', 'latitud':42.1341827669812, 'longitud':3.1119333246968726, 'categoria':'0', 'link':'', 'cliente':'', 'icono':'PDI Centurion mini.svg', 'iconog':'PDI Centurion Blanco.svg', 'direccion':'', 'descripcion':'Empúries fue habitada por los griegos (Emporion) y los romanos (Emporiae).','codigo':'10569526d276','imagen':'IMG-4d3ceeac150ce3c4.jpg','idioma':'1','contenidos':'1'},{'tipo':'0', 'nombre': 'La Casa de los Mosaicos', 'latitud':42.13519396848208, 'longitud':3.119905593501703, 'categoria':'0', 'link':'', 'cliente':'', 'icono':'PDI Centurion mini.svg', 'iconog':'PDI Centurion Blanco.svg', 'direccion':'', 'descripcion':'Es una de las domus mejor conservadas del yacimiento arqueológico de Empúries. ','codigo':'105742335c65','imagen':'IMG-ff191de9ab3ac726.jpg','idioma':'1','contenidos':'2'},{'tipo':'0', 'nombre': 'El foro de Empúries', 'latitud':42.13248838264504, 'longitud':3.1172260093539332, 'categoria':'0', 'link':'', 'cliente':'', 'icono':'PDI Centurion mini.svg', 'iconog':'PDI Centurion Blanco.svg', 'direccion':'', 'descripcion':'Era el centro político, administrativo y religioso de la ciudad romana.','codigo':'1058197a5668','imagen':'IMG-7675b05126dc3a80.jpg','idioma':'1','contenidos':'2'},{'tipo':'0', 'nombre': 'Calle romana en Empúries', 'latitud':42.13356362414622, 'longitud':3.117128367025406, 'categoria':'0', 'link':'', 'cliente':'', 'icono':'PDI Centurion mini.svg', 'iconog':'PDI Centurion Blanco.svg', 'direccion':'', 'descripcion':'Una típica calle romana: ejemplo en Empúries.','codigo':'1059bcd561f2','imagen':'IMG-2e8833ce617c49e6.jpg','idioma':'1','contenidos':'1'},{'tipo':'0', 'nombre': 'Circo de Toledo', 'latitud':39.864400244370295, 'longitud':-4.02904514654528, 'categoria':'0', 'link':'', 'cliente':'', 'icono':'PDI Centurion mini.svg', 'iconog':'PDI Centurion Blanco.svg', 'direccion':'', 'descripcion':'Fue construido en el siglo I durante el mandato de Octavio Augusto o Tiberio.','codigo':'1060CT6DO','imagen':'IMG-05a1d9ff32160137.jpg','idioma':'1','contenidos':'2'},{'tipo':'0', 'nombre': 'Convento de San Francesc', 'latitud':41.34546505297031, 'longitud':1.6971819953153355, 'categoria':'0', 'link':'', 'cliente':'', 'icono':'PDI Centurion mini.svg', 'iconog':'PDI Centurion Blanco.svg', 'direccion':'', 'descripcion':'Antiguo convento de monjes franciscanos de origen medieval.','codigo':'1061ac582018','imagen':'IMG-a534482b07116eed.jpg','idioma':'1','contenidos':'2'},{'tipo':'0', 'nombre': 'Plaça de Jaume I', 'latitud':41.347085284379375, 'longitud':1.6967636394944867, 'categoria':'0', 'link':'', 'cliente':'', 'icono':'PDI Centurion mini.svg', 'iconog':'PDI Centurion Blanco.svg', 'direccion':'', 'descripcion':'La plaza más importante de Vilafranca desde el punto de vista histórico.','codigo':'1062efd46d6c','imagen':'IMG-08ad6e7c018b5222.jpg','idioma':'1','contenidos':'2'},{'tipo':'0', 'nombre': 'Plaza de la Villa', 'latitud':41.34640843904539, 'longitud':1.6982723059824092, 'categoria':'0', 'link':'', 'cliente':'', 'icono':'PDI Centurion mini.svg', 'iconog':'PDI Centurion Blanco.svg', 'direccion':'', 'descripcion':'Conoce la Plaza de la Villa desde el siglo XIV.','codigo':'1063cb4a32f6','imagen':'IMG-ee2c2d51fea23522.jpg','idioma':'1','contenidos':'1'},{'tipo':'0', 'nombre': 'Villa romana de la Llosa', 'latitud':41.06584981367921, 'longitud':1.050382526165396, 'categoria':'0', 'link':'', 'cliente':'', 'icono':'PDI Centurion mini.svg', 'iconog':'PDI Centurion Blanco.svg', 'direccion':'', 'descripcion':'La Llosa fue un asentamiento rural integrado en lo que antes era el término municipal de la antigua Tarraco.','codigo':'106406c5ae50','imagen':'IMG-07189a89f6fa39f9.jpg','idioma':'1','contenidos':'8'},{'tipo':'0', 'nombre': 'Castro de Tongóbriga', 'latitud':41.16360559172125, 'longitud':-8.146349909687515, 'categoria':'0', 'link':'', 'cliente':'', 'icono':'PDI Centurion mini.svg', 'iconog':'PDI Centurion Blanco.svg', 'direccion':'', 'descripcion':'En el sureste del yacimiento se encontró un antiguo poblado de la cultura castreña.','codigo':'10655777ae41','imagen':'IMG-c4dc576c72a8ca20.png','idioma':'1','contenidos':'4'},{'tipo':'0', 'nombre': 'Yacimiento romano. Tongóbriga', 'latitud':41.161864702590236, 'longitud':-8.147301706219048, 'categoria':'0', 'link':'', 'cliente':'', 'icono':'PDI Centurion mini.svg', 'iconog':'PDI Centurion Blanco.svg', 'direccion':'', 'descripcion':'Hacia el 138 antes de Cristo comienza la romanización de los castros.','codigo':'1066be045baf','imagen':'IMG-d0aed215e4bac4d0.png','idioma':'1','contenidos':'7'},{'tipo':'0', 'nombre': 'Introducción: Olissipo', 'latitud':38.725662458462, 'longitud':-9.137203428146558, 'categoria':'0', 'link':'', 'cliente':'', 'icono':'PDI Centurion mini.svg', 'iconog':'PDI Centurion Blanco.svg', 'direccion':'', 'descripcion':'Olissipo es el nombre que recibía Lisboa en época romana.','codigo':'10671f5fa843','imagen':'IMG-cbf82d14bbcef156.jpg','idioma':'1','contenidos':'1'},{'tipo':'0', 'nombre': 'Circo de Lisboa', 'latitud':38.71394752382397, 'longitud':-9.139298918096364, 'categoria':'0', 'link':'', 'cliente':'', 'icono':'PDI Centurion mini.svg', 'iconog':'PDI Centurion Blanco.svg', 'direccion':'', 'descripcion':'En el gran circo romano de Olissipo tenían lugar las apasionantes carreras de aurigas','codigo':'1068c8e25a2e','imagen':'IMG-9809a0b51fcdd20d.png','idioma':'1','contenidos':'2'},{'tipo':'0', 'nombre': 'Criptopórticos - Foro de Olissipo', 'latitud':38.70993490660218, 'longitud':-9.136727089260525, 'categoria':'0', 'link':'', 'cliente':'', 'icono':'PDI Centurion mini Premium.svg', 'iconog':'PDI Centurion Premium.svg', 'direccion':'', 'descripcion':'Esta era la estructura que permitían que el foro estuviese por encima de las variaciones del nivel freático del río Tajo.','codigo':'1069e7cde1a5','imagen':'IMG-bb9382605c4e530f.jpg','idioma':'1','contenidos':'2'},{'tipo':'0', 'nombre': 'Teatro de Málaga', 'latitud':36.72166867845115, 'longitud':-4.4170420739819845, 'categoria':'0', 'link':'', 'cliente':'', 'icono':'PDI Centurion mini.svg', 'iconog':'PDI Centurion Blanco.svg', 'direccion':'', 'descripcion':'Descubre el teatro romano con Imageen.','codigo':'107012ccd777','imagen':'IMG-6c1bc46c503e34ac.jpg','idioma':'1','contenidos':'1'},{'tipo':'0', 'nombre': 'Termas de los Bañales', 'latitud':42.288361053208796, 'longitud':-1.2310678748463588, 'categoria':'0', 'link':'', 'cliente':'', 'icono':'PDI Centurion mini.svg', 'iconog':'PDI Centurion Blanco.svg', 'direccion':'', 'descripcion':'Conoce las distintas estancias de las termas.','codigo':'1071bb1a8a79','imagen':'IMG-290355ced21a5748.jpg','idioma':'1','contenidos':'2'},{'tipo':'0', 'nombre': 'Teatro de Córdoba', 'latitud':37.8818472912533, 'longitud':-4.777875709788004, 'categoria':'0', 'link':'', 'cliente':'', 'icono':'PDI Centurion mini.svg', 'iconog':'PDI Centurion Blanco.svg', 'direccion':'', 'descripcion':'Fue uno de los teatros más grandes de todo el Imperio Romano.','codigo':'107250eaccb3','imagen':'IMG-aaffef877fd90b2a.png','idioma':'1','contenidos':'2'},{'tipo':'0', 'nombre': 'Acueducto de Segovia', 'latitud':40.94820954927183, 'longitud':-4.117788313522822, 'categoria':'0', 'link':'', 'cliente':'', 'icono':'PDI Centurion mini.svg', 'iconog':'PDI Centurion Blanco.svg', 'direccion':'', 'descripcion':'¿Sabías que se desconocen muchos datos del origen del acueducto de Segovia?','codigo':'107396d723c5','imagen':'IMG-460637e1e6f6cfa4.jpg','idioma':'1','contenidos':'2'},{'tipo':'0', 'nombre': 'Calzada romana Osma', 'latitud':41.60269724316972, 'longitud':-3.089471306351109, 'categoria':'0', 'link':'', 'cliente':'', 'icono':'PDI Centurion mini.svg', 'iconog':'PDI Centurion Blanco.svg', 'direccion':'', 'descripcion':'Contempla el proceso de construcción de una calzada romana.','codigo':'10746fe72748','imagen':'IMG-3d8432f8846f9e7b.png','idioma':'1','contenidos':'2'},{'tipo':'0', 'nombre': 'Cisterna-decantador en Uxama', 'latitud':41.57605359107118, 'longitud':-3.091633318167346, 'categoria':'0', 'link':'', 'cliente':'', 'icono':'PDI Centurion mini.svg', 'iconog':'PDI Centurion Blanco.svg', 'direccion':'', 'descripcion':'Se trata de una noria que era impulsada dentro de una tubería.','codigo':'10753ed179d9','imagen':'IMG-138a7a676b4d89e0.jpg','idioma':'1','contenidos':'1'},{'tipo':'0', 'nombre': 'Las Médulas', 'latitud':42.46001906735225, 'longitud':-6.760159201075526, 'categoria':'0', 'link':'', 'cliente':'', 'icono':'PDI Centurion mini.svg', 'iconog':'PDI Centurion Blanco.svg', 'direccion':'', 'descripcion':'Las Médulas es una explotación minera romana que supera todo lo imaginable. ','codigo':'1076261150d3','imagen':'IMG-803939957b139891.png','idioma':'1','contenidos':'1'},{'tipo':'0', 'nombre': 'Mina romana de Filiel', 'latitud':42.36153439563217, 'longitud':-6.277260924708647, 'categoria':'0', 'link':'', 'cliente':'', 'icono':'PDI Centurion mini.svg', 'iconog':'PDI Centurion Blanco.svg', 'direccion':'', 'descripcion':'En esta mina se realizaba un ingenioso sistema de extracción de oro con canales de lavado.','codigo':'1077c0cb3cc1','imagen':'IMG-c00d516c0893c032.png','idioma':'1','contenidos':'1'},{'tipo':'0', 'nombre': 'Introducción - Coimbra', 'latitud':40.208028408962214, 'longitud':-8.411813903111891, 'categoria':'0', 'link':'', 'cliente':'', 'icono':'PDI Centurion mini.svg', 'iconog':'PDI Centurion Blanco.svg', 'direccion':'', 'descripcion':'La actual ciudad de Coimbra era la antigua Aeminium.','codigo':'1078f232df31','imagen':'IMG-7c069210f12f2c7c.jpg','idioma':'1','contenidos':'1'},{'tipo':'0', 'nombre': 'Criptopórticos Aeminium', 'latitud':40.20913404391397, 'longitud':-8.425511702700906, 'categoria':'0', 'link':'', 'cliente':'', 'icono':'PDI Centurion mini.svg', 'iconog':'PDI Centurion Blanco.svg', 'direccion':'', 'descripcion':'Es criptopórtico mejor conservado del Imperio Romano.','codigo':'1079fc85eaeb','imagen':'IMG-bd9d94a52655061f.jpg','idioma':'1','contenidos':'1'},{'tipo':'0', 'nombre': 'Mina de Riotinto', 'latitud':37.69268211540008, 'longitud':-6.5960240621609145, 'categoria':'0', 'link':'', 'cliente':'', 'icono':'PDI Centurion mini.svg', 'iconog':'PDI Centurion Blanco.svg', 'direccion':'', 'descripcion':'En ella se han encontrado restos de más de 40 ruedas de un sistema de elevación del agua.','codigo':'1080580203d0','imagen':'IMG-0896406c73c1a9e7.png','idioma':'1','contenidos':'1'},{'tipo':'0', 'nombre': 'Acueducto de Arlés', 'latitud':43.70727674416954, 'longitud':4.7292812862471205, 'categoria':'0', 'link':'', 'cliente':'', 'icono':'PDI Centurion mini.svg', 'iconog':'PDI Centurion Blanco.svg', 'direccion':'', 'descripcion':'Este es un ejemplo que muestra funcionalidades de los acueductos que quizá no conocías.','codigo':'108163dc2e16','imagen':'IMG-324c50967009e668.jpg','idioma':'1','contenidos':'1'},{'tipo':'0', 'nombre': 'Circo de Arlés', 'latitud':43.67331927870847, 'longitud':4.618029088165245, 'categoria':'0', 'link':'', 'cliente':'', 'icono':'PDI Centurion mini.svg', 'iconog':'PDI Centurion Blanco.svg', 'direccion':'', 'descripcion':'Se han encontrado las huellas del antiguo circo.','codigo':'1082c1f48afc','imagen':'IMG-3564f84d21d2a6d5.jpg','idioma':'1','contenidos':'1'},{'tipo':'0', 'nombre': 'Segóbriga romana', 'latitud':39.892527999903244, 'longitud':-2.806632687912779, 'categoria':'0', 'link':'', 'cliente':'', 'icono':'PDI Centurion mini.svg', 'iconog':'PDI Centurion Blanco.svg', 'direccion':'', 'descripcion':'La visita a Segóbriga supone un fascinante viaje en el tiempo.','codigo':'1083ee6cf3f6','imagen':'IMG-de2f0fad6ae29681.png','idioma':'1','contenidos':'2'},{'tipo':'0', 'nombre': 'Pont du Gard', 'latitud':43.947789989075055, 'longitud':4.5349707262716255, 'categoria':'0', 'link':'', 'cliente':'', 'icono':'PDI Centurion mini.svg', 'iconog':'PDI Centurion Blanco.svg', 'direccion':'', 'descripcion':'Conoce el impresionante acueducto de Nîmes con IMAGEEN.','codigo':'108431c93d33','imagen':'IMG-cda5dce61dbed8a0.jpg','idioma':'1','contenidos':'5'},{'tipo':'0', 'nombre': 'Túnel romano en Tiermes', 'latitud':41.331459068183605, 'longitud':-3.147286800541157, 'categoria':'0', 'link':'', 'cliente':'', 'icono':'PDI Centurion mini.svg', 'iconog':'PDI Centurion Blanco.svg', 'direccion':'', 'descripcion':'En el lado sur de la ciudad se conserva este largo túnel.','codigo':'108559a8b808','imagen':'IMG-d46344751f7c3ed6.jpg','idioma':'1','contenidos':'1'},{'tipo':'0', 'nombre': 'Canal romano en Tiermes', 'latitud':41.32901054169834, 'longitud':-3.1495880161523684, 'categoria':'0', 'link':'', 'cliente':'', 'icono':'PDI Centurion mini.svg', 'iconog':'PDI Centurion Blanco.svg', 'direccion':'', 'descripcion':'Canal de 6km de longitud, construido por ingenieros de la Antigua Roma. ','codigo':'10860097f5f3','imagen':'IMG-f70f602fd552c2bb.jpg','idioma':'1','contenidos':'1'},{'tipo':'0', 'nombre': 'Circo de Tiermes', 'latitud':41.329300554233484, 'longitud':-3.147553989169181, 'categoria':'0', 'link':'', 'cliente':'', 'icono':'PDI Centurion mini.svg', 'iconog':'PDI Centurion Blanco.svg', 'direccion':'', 'descripcion':'Era el único lugar público de espectáculo en la pequeña ciudad.','codigo':'1087bca5706e','imagen':'IMG-67bcd00cb97c5532.jpg','idioma':'1','contenidos':'1'},{'tipo':'0', 'nombre': 'Templo de Debod', 'latitud':40.424209431686336, 'longitud':-3.7177480450213722, 'categoria':'0', 'link':'', 'cliente':'', 'icono':'PDI Centurion mini.svg', 'iconog':'PDI Centurion Blanco.svg', 'direccion':'', 'descripcion':'Descubre la historia del antiguo templo egipcio de Madrid.','codigo':'10883e5abbe0','imagen':'IMG-ea4706a254a4e37a.png','idioma':'1','contenidos':'5'},{'tipo':'0', 'nombre': 'Acueducto de Albarracín', 'latitud':40.431728421822555, 'longitud':-1.4170396266786534, 'categoria':'0', 'link':'', 'cliente':'', 'icono':'PDI Centurion mini.svg', 'iconog':'PDI Centurion Blanco.svg', 'direccion':'', 'descripcion':'El acueducto romano entre Cella-Albarracin.','codigo':'108906e8c9d6','imagen':'IMG-e034e40a8b860905.jpg','idioma':'1','contenidos':'3'},{'tipo':'0', 'nombre': 'Ingeniería romana en Bilbilis', 'latitud':41.38172710541217, 'longitud':-1.6028147527999141, 'categoria':'0', 'link':'', 'cliente':'', 'icono':'PDI Centurion mini.svg', 'iconog':'PDI Centurion Blanco.svg', 'direccion':'', 'descripcion':'Algunos ejemplos de ingeniería romana en Bilbilis.','codigo':'1090747e6ca6','imagen':'IMG-90343f005140e0c7.jpg','idioma':'1','contenidos':'4'},{'tipo':'0', 'nombre': 'Teatro y termas de Bilbilis', 'latitud':41.38211773291475, 'longitud':-1.6037072352577415, 'categoria':'0', 'link':'', 'cliente':'', 'icono':'PDI Centurion mini.svg', 'iconog':'PDI Centurion Blanco.svg', 'direccion':'', 'descripcion':'Tanto el teatro como las termas tenían respetables dimensiones.','codigo':'109146a7fcdf','imagen':'IMG-1c1cb9603ccd7514.jpg','idioma':'1','contenidos':'1'},{'tipo':'0', 'nombre': 'Villa romana de Carranque', 'latitud':40.18914564318846, 'longitud':-3.9510333359036443, 'categoria':'0', 'link':'', 'cliente':'', 'icono':'PDI Centurion mini.svg', 'iconog':'PDI Centurion Blanco.svg', 'direccion':'', 'descripcion':'Conoce la Villa romana de Carranque con IMAGEEN.','codigo':'109273c007ee','imagen':'IMG-ef73d5357dd5a3a7.jpg','idioma':'1','contenidos':'3'},{'tipo':'0', 'nombre': 'Acueducto de Gier', 'latitud':45.75810925782056, 'longitud':4.7650687763566575, 'categoria':'0', 'link':'', 'cliente':'', 'icono':'PDI Centurion mini.svg', 'iconog':'PDI Centurion Blanco.svg', 'direccion':'', 'descripcion':'Conoce el gran acueducto de Gier.','codigo':'1093090a1c1a','imagen':'IMG-5b53599222583c10.jpg','idioma':'1','contenidos':'1'},{'tipo':'0', 'nombre': 'Mina romana de Tresminas', 'latitud':41.481001843739506, 'longitud':-7.5178356804337545, 'categoria':'0', 'link':'', 'cliente':'', 'icono':'PDI Centurion mini.svg', 'iconog':'PDI Centurion Blanco.svg', 'direccion':'', 'descripcion':'La mina romana de Tresminas.','codigo':'1094bbf412ba','imagen':'IMG-2e3c184f9d06c657.png','idioma':'1','contenidos':'1'},{'tipo':'0', 'nombre': 'Posada romana de Liedena', 'latitud':42.62256961875359, 'longitud':-1.3036525162332042, 'categoria':'0', 'link':'', 'cliente':'', 'icono':'PDI Centurion mini.svg', 'iconog':'PDI Centurion Blanco.svg', 'direccion':'', 'descripcion':'Las excavaciones han arrojado el descubrimiento de esta posada romana.','codigo':'1095db4b1bd0','imagen':'IMG-e5c75909e9a5bd22.jpg','idioma':'1','contenidos':'3'},{'tipo':'0', 'nombre': 'Montblanc', 'latitud':41.37607948784347, 'longitud':1.159830863729481, 'categoria':'0', 'link':'', 'cliente':'', 'icono':'PDI Centurion mini.svg', 'iconog':'PDI Centurion Blanco.svg', 'direccion':'', 'descripcion':'Setmana Medieval de Montblanc.','codigo':'109618c8db3e','imagen':'IMG-6305dd9fd47d55e0.jpg','idioma':'1','contenidos':'2'},{'tipo':'0', 'nombre': 'Corrales (Huelva)', 'latitud':37.273598044490846, 'longitud':-6.988779166090113, 'categoria':'0', 'link':'', 'cliente':'', 'icono':'PDI Centurion mini.svg', 'iconog':'PDI Centurion Blanco.svg', 'direccion':'', 'descripcion':'Descubre el interesante patrimonio que alberga esta pintoresca localidad onubense.','codigo':'109766b3826b','imagen':'IMG-b0d763dd4fe86047.png','idioma':'1','contenidos':'6'},{'tipo':'0', 'nombre': 'El Paisaje de la Luz', 'latitud':40.41913808208944, 'longitud':-3.6921735603655463, 'categoria':'0', 'link':'', 'cliente':'', 'icono':'PDI Centurion mini Premium.svg', 'iconog':'PDI Centurion Premium.svg', 'direccion':'', 'descripcion':'Conoce los rincones de este sitio que es Patrimonio de la Humanidad.','codigo':'10988c337501','imagen':'IMG-e41c2d974160e088.png','idioma':'1','contenidos':'8'},{'tipo':'0', 'nombre': 'El Retiro', 'latitud':40.411234975489556, 'longitud':-3.6757542686493103, 'categoria':'0', 'link':'', 'cliente':'', 'icono':'PDI Centurion mini.svg', 'iconog':'PDI Centurion Blanco.svg', 'direccion':'', 'descripcion':'Conoce uno de los principales atractivos de la capital española.','codigo':'11008e3ec536','imagen':'IMG-bed7c0a8dbafa8c3.jpg','idioma':'1','contenidos':'4'},{'tipo':'0', 'nombre': 'Museo Reina Sofía', 'latitud':40.408116515535355, 'longitud':-3.694632004050095, 'categoria':'0', 'link':'', 'cliente':'', 'icono':'PDI Centurion mini.svg', 'iconog':'PDI Centurion Blanco.svg', 'direccion':'', 'descripcion':'El museo más visitado de la capital española.','codigo':'110106cf7c05','imagen':'IMG-90f40c1d3c5cb528.png','idioma':'1','contenidos':'1'},{'tipo':'0', 'nombre': 'Museo del Prado', 'latitud':40.41405951617894, 'longitud':-3.6916657622432125, 'categoria':'0', 'link':'', 'cliente':'', 'icono':'PDI Centurion mini Premium.svg', 'iconog':'PDI Centurion Premium.svg', 'direccion':'', 'descripcion':'Descubre este fascinante museo con IMAGEEN.','codigo':'11032a8470c3','imagen':'IMG-dcde4768bd9809cd.jpg','idioma':'1','contenidos':'2'},{'tipo':'0', 'nombre': 'Museo Thyssen-Bornemisza', 'latitud':40.416097758648085, 'longitud':-3.6949254021968914, 'categoria':'0', 'link':'', 'cliente':'', 'icono':'PDI Centurion mini.svg', 'iconog':'PDI Centurion Blanco.svg', 'direccion':'', 'descripcion':'Un importantísimo enclave del Triángulo del Arte.','codigo':'1104cf9f27f4','imagen':'IMG-0772066c4d1b40b8.jpg','idioma':'1','contenidos':'1'},{'tipo':'0', 'nombre': 'Las Meninas de Velázquez', 'latitud':40.4134891720701, 'longitud':-3.6918440478101973, 'categoria':'0', 'link':'', 'cliente':'', 'icono':'PDI Centurion mini Premium.svg', 'iconog':'PDI Centurion Premium.svg', 'direccion':'', 'descripcion':'Sumérgete en el cuadro de las Meninas, mientras el artista te muestra sus detalles.','codigo':'11115c9e0ad2','imagen':'IMG-884947ff066eaee5.png','idioma':'1','contenidos':'1'},{'tipo':'0', 'nombre': 'Castillo de Miravet', 'latitud':41.03560661475656, 'longitud':0.5940378303213665, 'categoria':'0', 'link':'', 'cliente':'', 'icono':'PDI Centurion mini.svg', 'iconog':'PDI Centurion Blanco.svg', 'direccion':'', 'descripcion':'Descubre el pasado de este inmenso castillo templario.','codigo':'1105d2e93208','imagen':'IMG-a574155e65e3bf43.png','idioma':'1','contenidos':'5'},{'tipo':'0', 'nombre': 'Carretera romana en Soria', 'latitud':41.684312154509186, 'longitud':-2.8259000021545924, 'categoria':'0', 'link':'', 'cliente':'', 'icono':'PDI Centurion mini.svg', 'iconog':'PDI Centurion Blanco.svg', 'direccion':'', 'descripcion':'Descubre todo sobre las carreteras romanas en Soria.','codigo':'11066eb3a615','imagen':'IMG-1c01feb55bbfc652.jpg','idioma':'1','contenidos':'4'},{'tipo':'0', 'nombre': 'El Palacio de Cristal', 'latitud':40.41382262935361, 'longitud':-3.6819753285030408, 'categoria':'0', 'link':'', 'cliente':'', 'icono':'PDI Centurion mini.svg', 'iconog':'PDI Centurion Blanco.svg', 'direccion':'', 'descripcion':'El Palacio de Cristal ubicado en el parque del retiro en Madrid','codigo':'1108db68afd0','imagen':'IMG-992b2d9b657b7ff7.png','idioma':'1','contenidos':'1'},{'tipo':'0', 'nombre': 'Estanque del Retiro', 'latitud':40.41739519729071, 'longitud':-3.6838575861747853, 'categoria':'0', 'link':'', 'cliente':'', 'icono':'PDI Centurion mini.svg', 'iconog':'PDI Centurion Blanco.svg', 'direccion':'', 'descripcion':'Descubre la historia del Estanque Grande o Estanque del Retiro.','codigo':'1109b4cc60d9','imagen':'IMG-3905e01d4b54b1f9.png','idioma':'1','contenidos':'1'},{'tipo':'0', 'nombre': 'Fuente del Ángel Caído. El Retiro', 'latitud':40.41113798239204, 'longitud':-3.6825379393239324, 'categoria':'0', 'link':'', 'cliente':'', 'icono':'PDI Centurion mini.svg', 'iconog':'PDI Centurion Blanco.svg', 'direccion':'', 'descripcion':'Visita la fuente coronada por la figura del Ángel Caído.','codigo':'11107675e9e7','imagen':'IMG-49178a63f505bab3.png','idioma':'1','contenidos':'1'},{'tipo':'0', 'nombre': 'Sepulcro megalítico de Ca Na Costa', 'latitud':38.72663822955854, 'longitud':1.445817714945965, 'categoria':'0', 'link':'', 'cliente':'', 'icono':'PDI Centurion mini.svg', 'iconog':'PDI Centurion Blanco.svg', 'direccion':'', 'descripcion':'Descubre la fascinante historia del sepulcro prehistórico con IMAGEEN.','codigo':'111249ccb4ec','imagen':'IMG-eee8bd9cde5a9229.png','idioma':'1','contenidos':'2'},{'tipo':'0', 'nombre': 'Salinas de Formentera', 'latitud':38.73202165971985, 'longitud':1.4179382607121933, 'categoria':'0', 'link':'', 'cliente':'', 'icono':'PDI Centurion mini.svg', 'iconog':'PDI Centurion Blanco.svg', 'direccion':'', 'descripcion':'Viaja al pasado de este paisaje natural único.','codigo':'11144e42036f','imagen':'IMG-714c72fd2e3a032e.jpg','idioma':'1','contenidos':'2'},{'tipo':'0', 'nombre': 'Puerta de Alcalá', 'latitud':40.420155339020724, 'longitud':-3.6887799178873584, 'categoria':'0', 'link':'', 'cliente':'', 'icono':'PDI Centurion mini Premium.svg', 'iconog':'PDI Centurion Premium.svg', 'direccion':'', 'descripcion':'Descubre la historia de la monumental Puerta de Alcalá con IMAGEEN','codigo':'1127bef1fa7f','imagen':'IMG-010da7862c47d219.png','idioma':'1','contenidos':'1'},{'tipo':'0', 'nombre': 'Fuente de Cibeles', 'latitud':40.419463268402396, 'longitud':-3.69310395986905, 'categoria':'0', 'link':'', 'cliente':'', 'icono':'PDI Centurion mini.svg', 'iconog':'PDI Centurion Blanco.svg', 'direccion':'', 'descripcion':'Descubre la historia de la famosa Fuente de Cibeles con IMAGEEN.','codigo':'11286da3fa36','imagen':'IMG-55c3811c275e6c11.png','idioma':'1','contenidos':'2'},{'tipo':'0', 'nombre': 'Teatro Romano de Caesar Augusta', 'latitud':41.65295165500447, 'longitud':-0.8772304846563431, 'categoria':'0', 'link':'', 'cliente':'', 'icono':'PDI Centurion mini new.svg', 'iconog':'PDI Centurion new.svg', 'direccion':'', 'descripcion':'Teatro de la época romana construido en la primera mitad del siglo I d. C. en Caesar Augusta, actual Zaragoza','codigo':'112954e65783','imagen':'IMG-491eecedd345c3b8.png','idioma':'1','contenidos':'11'},{'tipo':'0', 'nombre': 'Trailer Mérida Imageen', 'latitud':38.916642, 'longitud':-6.339391, 'categoria':'0', 'link':'', 'cliente':'', 'icono':'PDI Centurion mini.svg', 'iconog':'PDI Centurion Blanco.svg', 'direccion':'', 'descripcion':'¿Estas listo para disfrutar de las ruinas romanas de Mérida como nunca antes? Aquí tienes un avance de todo lo que tienes por descubrir','codigo':'1134c667a745','imagen':'IMG-67e03442fe22f7d4.png','idioma':'1','contenidos':'1'},{'tipo':'0', 'nombre': 'Trailer Tarragona Imageen', 'latitud':41.115666469272064, 'longitud':1.2514613672918398, 'categoria':'0', 'link':'', 'cliente':'', 'icono':'PDI Centurion mini.svg', 'iconog':'PDI Centurion Blanco.svg', 'direccion':'', 'descripcion':'¿Estas listo para disfrutar de las ruinas romanas de Tarragona como nunca antes? Aquí tienes un avance de todo lo que tienes por descubrir','codigo':'1137d6b050dc','imagen':'IMG-3c41046752735676.png','idioma':'1','contenidos':'1'},{'tipo':'0', 'nombre': 'Trailer Cartagena Imageen', 'latitud':37.598790666625305, 'longitud':-0.985588437633527, 'categoria':'0', 'link':'', 'cliente':'', 'icono':'PDI Centurion mini.svg', 'iconog':'PDI Centurion Blanco.svg', 'direccion':'', 'descripcion':'¿Estas listo para disfrutar de las ruinas romanas de Cartagena como nunca antes? Aquí tienes un avance de todo lo que tienes por descubrir','codigo':'1138b3b72a66','imagen':'IMG-533e9182caf9b98e.png','idioma':'1','contenidos':'1'},{'tipo':'0', 'nombre': 'La Filomena', 'latitud':40.416093280171424, 'longitud':-3.7042056353599873, 'categoria':'0', 'link':'', 'cliente':'', 'icono':'PDI Centurion mini.svg', 'iconog':'PDI Centurion Blanco.svg', 'direccion':'', 'descripcion':'Revive la impresionante nevada de enero de 2021 en Madrid.','codigo':'113913ca34e0','imagen':'IMG-1f3a3de2817a71ab.png','idioma':'1','contenidos':'5'},{'tipo':'0', 'nombre': 'Puente del río Calvo', 'latitud':41.621390967162355, 'longitud':-7.257966936975027, 'categoria':'0', 'link':'', 'cliente':'', 'icono':'PDI Centurion mini new.svg', 'iconog':'PDI Centurion new.svg', 'direccion':'', 'descripcion':'El antiguo puente que unía de forma ingeniosa dos ciudades romanas.','codigo':'1141d6303c71','imagen':'IMG-932515b3802b4cfc.png','idioma':'1','contenidos':'2'},{'tipo':'0', 'nombre': 'Puente de Alcántara', 'latitud':39.72240432206077, 'longitud':-6.892344061521424, 'categoria':'0', 'link':'', 'cliente':'', 'icono':'PDI Centurion mini new.svg', 'iconog':'PDI Centurion new.svg', 'direccion':'', 'descripcion':'Aprende los métodos que se llevaron a cabo para la construcción de este puente.','codigo':'1142861a5653','imagen':'IMG-98ba7ba796263a00.png','idioma':'1','contenidos':'2'},{'tipo':'0', 'nombre': 'El Médol', 'latitud':41.1383989389041, 'longitud':1.3384490843354477, 'categoria':'0', 'link':'', 'cliente':'', 'icono':'PDI Centurion mini Pre New.svg', 'iconog':'PDI Centurion Pre New.svg', 'direccion':'', 'descripcion':'Descubre la importancia de este lugar para las construcciones romanas de Tarraco.','codigo':'1143c2dbd58a','imagen':'IMG-32953406a8f81402.png','idioma':'1','contenidos':'3'},{'tipo':'0', 'nombre': 'Ingeniería romana en Mérida', 'latitud':38.918762658161, 'longitud':-6.3450411191415945, 'categoria':'0', 'link':'', 'cliente':'', 'icono':'PDI Centurion mini Pre New.svg', 'iconog':'PDI Centurion Pre New.svg', 'direccion':'', 'descripcion':'Descubre las impresionantes técnicas de ingeniería de los romanos.','codigo':'11459e120b96','imagen':'IMG-cba33c05308a8c5b.png','idioma':'1','contenidos':'6'},{'tipo':'0', 'nombre': 'Ambrussum', 'latitud':43.71913987967164, 'longitud':4.147897040466745, 'categoria':'0', 'link':'', 'cliente':'', 'icono':'PDI Centurion mini new.svg', 'iconog':'PDI Centurion new.svg', 'direccion':'', 'descripcion':'Los secretos romanos del Parque Arqueológico de Ambrussum.','codigo':'1146bf22d4e3','imagen':'IMG-07cf519e0f747ea8.png','idioma':'1','contenidos':'4'},{'tipo':'0', 'nombre': 'El Valle', 'latitud':45.73841241664797, 'longitud':7.3156948018390295, 'categoria':'0', 'link':'', 'cliente':'', 'icono':'PDI Centurion mini new.svg', 'iconog':'PDI Centurion new.svg', 'direccion':'', 'descripcion':'El Valle de Aosta es un importante cruce de caminos desde tiempos romanos.','codigo':'11478ad7ceb8','imagen':'IMG-010c77acb5d982e8.png','idioma':'1','contenidos':'3'},{'tipo':'0', 'nombre': 'La ciudad eterna', 'latitud':41.87211422488949, 'longitud':12.521477656865137, 'categoria':'0', 'link':'', 'cliente':'', 'icono':'PDI Centurion mini new.svg', 'iconog':'PDI Centurion new.svg', 'direccion':'', 'descripcion':'Roma acoge infinidad de obras de los romanos.','codigo':'11482258391c','imagen':'IMG-875792ec2f65eef2.png','idioma':'1','contenidos':'1'},{'tipo':'0', 'nombre': 'Panteón de Agripa', 'latitud':41.90607574079588, 'longitud':12.496322535212803, 'categoria':'0', 'link':'', 'cliente':'', 'icono':'PDI Centurion mini new.svg', 'iconog':'PDI Centurion new.svg', 'direccion':'', 'descripcion':'Esta es quizá una de las obras romanas mejor conservadas. ','codigo':'1149380dace4','imagen':'IMG-e80616b81ee1813a.png','idioma':'1','contenidos':'1'},{'tipo':'0', 'nombre': 'La Sagrada Familia', 'latitud':41.40360573715118, 'longitud':2.1743450689998007, 'categoria':'0', 'link':'', 'cliente':'', 'icono':'PDI Centurion mini.svg', 'iconog':'PDI Centurion Blanco.svg', 'direccion':'', 'descripcion':'Conoce todos los secretos de la basílica, con IMAGEEN.','codigo':'1150b129dff8','imagen':'IMG-d8be0019c4dbad63.jpg','idioma':'1','contenidos':'2'},{'tipo':'0', 'nombre': 'El Teatro griego', 'latitud':41.36950687926582, 'longitud':2.159737197834796, 'categoria':'0', 'link':'', 'cliente':'', 'icono':'PDI Centurion mini.svg', 'iconog':'PDI Centurion Blanco.svg', 'direccion':'', 'descripcion':'Descubre el verdadero origen de este teatro aparentemente griego.','codigo':'115186f2d5af','imagen':'IMG-43d02e547ccad3ef.jpg','idioma':'1','contenidos':'1'},{'tipo':'0', 'nombre': 'Casa Batlló', 'latitud':41.391693266642235, 'longitud':2.1649246880498025, 'categoria':'0', 'link':'', 'cliente':'', 'icono':'PDI Centurion mini Premium.svg', 'iconog':'PDI Centurion Premium.svg', 'direccion':'', 'descripcion':'Una magnífica recreación 3D de la Casa Batlló.','codigo':'11524d32a00c','imagen':'IMG-39d8414dfca1dc4b.jpg','idioma':'1','contenidos':'1'},{'tipo':'0', 'nombre': 'Casa Milá', 'latitud':41.39517523719612, 'longitud':2.16190239783568, 'categoria':'0', 'link':'', 'cliente':'', 'icono':'PDI Centurion mini.svg', 'iconog':'PDI Centurion Blanco.svg', 'direccion':'', 'descripcion':'La fachada de la Casa Milá en 3D.','codigo':'1153279ae322','imagen':'IMG-4d1dcf030f179c2b.jpg','idioma':'1','contenidos':'1'},{'tipo':'0', 'nombre': 'Parc Güell', 'latitud':41.41449477926178, 'longitud':2.152694497836293, 'categoria':'0', 'link':'', 'cliente':'', 'icono':'PDI Centurion mini.svg', 'iconog':'PDI Centurion Blanco.svg', 'direccion':'', 'descripcion':'Aprende sobre este impresionante Parque en la ciudad.','codigo':'1154b7ac85c7','imagen':'IMG-04338864cba34210.jpg','idioma':'1','contenidos':'1'},{'tipo':'0', 'nombre': 'Montserrat', 'latitud':41.59307441089993, 'longitud':1.8376235972726669, 'categoria':'0', 'link':'', 'cliente':'', 'icono':'PDI Centurion mini.svg', 'iconog':'PDI Centurion Blanco.svg', 'direccion':'', 'descripcion':'Realiza un recorrido completo por el increíble lugar de Montserrat.','codigo':'115526f16d45','imagen':'IMG-441b1a8bf12a3f62.jpg','idioma':'1','contenidos':'2'},{'tipo':'0', 'nombre': 'Barcino Romana', 'latitud':41.38393777666374, 'longitud':2.1747219248184675, 'categoria':'0', 'link':'', 'cliente':'', 'icono':'PDI Centurion mini new.svg', 'iconog':'PDI Centurion new.svg', 'direccion':'', 'descripcion':'Sigue las huellas del Imperio Romano en Barcelona con IMAGEEN.','codigo':'1140aa00b3c5','imagen':'IMG-07008c7b46ff34d1.png','idioma':'1','contenidos':'3'},{'tipo':'0', 'nombre': 'Las Casas Colgadas', 'latitud':40.07771845120141, 'longitud':-2.128483073371866, 'categoria':'0', 'link':'', 'cliente':'', 'icono':'PDI Centurion mini new.svg', 'iconog':'PDI Centurion new.svg', 'direccion':'', 'descripcion':'Acércate al monumento más famoso de Cuenca y descubre su fascinante historia.','codigo':'115852e5461d','imagen':'IMG-c1fe7340dae2baa9.png','idioma':'1','contenidos':'1'},{'tipo':'0', 'nombre': 'Castillo de Aunqueospese', 'latitud':40.534178579351575, 'longitud':-4.838735817537543, 'categoria':'0', 'link':'', 'cliente':'', 'icono':'PDI Centurion mini new.svg', 'iconog':'PDI Centurion new.svg', 'direccion':'', 'descripcion':'Descubre este increíble Castillo en Ávila.','codigo':'11594505db5b','imagen':'IMG-001764491c517c9c.png','idioma':'1','contenidos':'1'},{'tipo':'1', 'nombre': 'RODILLA Cuzco', 'latitud':40.458365736259815, 'longitud':-3.690763273856167, 'categoria':'0', 'link':'https://goo.gl/maps/tgZtQcMEfCEkSdEn9', 'icono':'Logo Rodilla R mini.svg', 'iconog':'Logo Rodilla R.svg', 'direccion':'P.º de la Castellana, 123, 28046 Madrid ', 'descripcion':'A tan solo unos metros del emblemático estadio Santiago Bernabéu, el hogar del Real Madrid y el fútbol madrileño, se sitúa estratégicamente el restaurante Rodilla de Cuzco. La peculiaridad de este local reside en la variedad de su público, que empieza a primera hora del día con los desayunos de los empresarios de la zona y va virando hasta convertirse al final de la jornada en un lugar de encuentro para los más futboleros de la ciudad antes de que empiece el partido de su equipo.','codigo':'1019494005','imagen':'IMG-IIGCPV-IGGUSV.jpg','idioma':'1','contenidos':'0'},{'tipo':'1', 'nombre': 'RODILLA Avda. Filipinas', 'latitud':40.43957045750466, 'longitud':-3.7125681892008315, 'categoria':'0', 'link':'https://goo.gl/maps/ZKHTrGciprbS8Tg27', 'icono':'Logo Rodilla R mini.svg', 'iconog':'Logo Rodilla R.svg', 'direccion':'Av. de Filipinas, 1 bis, 28003 Madrid ', 'descripcion':'Entre las calles que rodean la Plaza Cristo Rey, rebosantes de universitarios y jóvenes que llegan a Madrid cargados de sueños y proyectos, se encuentra el restaurante Rodilla de Avenida Filipinas, pegado a lo que en la zona se conoce como Islas Filipinas, en honor a la parada de metro que nos transporta hasta allí. Los sándwiches Rodilla a la salida de clase, las meriendas y las cervezas, hacen que este pequeño local quede en la memoria de todos cuantos pasan su etapa universitaria en Madrid.','codigo':'1020598681','imagen':'IMG-DHDDBN-DEEVEN.jpg','idioma':'1','contenidos':'0'},{'tipo':'1', 'nombre': 'RODILLA Princesa', 'latitud':40.43299298548558, 'longitud':-3.717290315392755, 'categoria':'0', 'link':'https://goo.gl/maps/EpX7xubfUhHCBikbA', 'icono':'Logo Rodilla R mini.svg', 'iconog':'Logo Rodilla R.svg', 'direccion':'C/ Princesa, 76 MADRID 28008', 'descripcion':'Tras pasar por la Plaza de Oriente y el Palacio Real, qué mejor que recorrer los Jardines de Sabatini, la icónica Plaza de España y subir hasta el mirador de Moncloa por la Calle Princesa. Para cargar las pilas después del paseo y antes de subir a deleitarse con las vistas a toda la ciudad de Madrid, Rodilla en el número 76 de la señorial Calle Princesa será el lugar más acogedor para reponer fuerzas y disfrutar de un excelente tentempié.','codigo':'1021181809','imagen':'IMG-73490dd4f7179a2e.jpg','idioma':'1','contenidos':'0'},{'tipo':'1', 'nombre': 'Rodilla Teatro Real', 'latitud':40.41769699610449, 'longitud':-3.7089353548368456, 'categoria':'0', 'link':'https://goo.gl/maps/7u4McVwijTckwzuC7', 'icono':'Logo Rodilla R mini.svg', 'iconog':'Logo Rodilla R.svg', 'direccion':'', 'descripcion':'Recorrer las sinuosas calles del centro de Madrid, que conducen a una de las localizaciones más icónicas de la ciudad, la Plaza Mayor, transportará a cualquier visitante a siglos pasados, colmados de caballeros y carruajes. En una de ellas, se encuentra uno de los Rodilla más icónicos del centro de la capital española, ideal para hacer una pausa por este viaje en el tiempo y antes de adentrarse en el Madrid de los Austrias.','codigo':'1022812638','imagen':'IMG-c1f05a701dca2d0e.jpg','idioma':'1','contenidos':'0'},{'tipo':'1', 'nombre': 'RODILLA Puerta del Sol', 'latitud':40.41736533582985, 'longitud':-3.702719545021608, 'categoria':'0', 'link':'https://goo.gl/maps/VVUHR5ZN9KRud8jdA', 'icono':'Logo Rodilla R mini.svg', 'iconog':'Logo Rodilla R.svg', 'direccion':'', 'descripcion':'En la plaza más céntrica e histórica de Madrid, considerada el inicio de todas las carreteras radiales españolas, se encuentra uno de los restaurantes Rodilla más antiguos y transitados de la enseña madrileña. Rodilla Puerta del Sol es la parada perfecta para reponer fuerzas tras un largo día recorriendo las encrucijadas calles del Barrio de las Letras y el Madrid más castizo.','codigo':'1023314880','imagen':'IMG-WBADJW-WYAVMW.jpg','idioma':'1','contenidos':'0'}]}